City,Lat,Lng,Max Temp,Humidity,Cloudiness,Wind Speed,Country,Date
conceicao do araguaia,-8.2578,-49.2647,73.49,96,100,3.94,BR,1612663380
luderitz,-26.6481,15.1594,67.42,70,0,22.7,NA,1612663104
kapaa,22.0752,-159.319,73.4,53,75,6.91,US,1612663389
bethel,41.3712,-73.414,35.01,59,1,4.74,US,1612662990
ambon,-3.6954,128.1814,89.6,62,40,5.75,ID,1612663039
arkhara,49.4212,130.0842,-16.24,87,44,6.69,RU,1612663398
busselton,-33.65,115.3333,62.01,95,100,3.0,AU,1612663231
upernavik,72.7868,-56.1549,18.97,75,0,4.59,GL,1612663385
mao,39.8885,4.2658,55.4,94,40,10.36,ES,1612663157
tuktoyaktuk,69.4541,-133.0374,-16.6,76,90,19.57,CA,1612663289
lisakovsk,52.5369,62.4936,5.5,89,49,25.14,KZ,1612663247
nuevo ideal,24.8875,-105.0728,56.7,33,0,2.53,MX,1612663418
bardiyah,31.7561,25.0865,61.54,52,79,8.23,LY,1612663421
touros,-5.1989,-35.4608,77.0,83,20,3.44,BR,1612662911
bredasdorp,-34.5322,20.0403,66.2,88,98,3.44,ZA,1612663386
port elizabeth,-33.918,25.5701,63.0,90,4,13.22,ZA,1612663249
vaini,-21.2,-175.2,84.2,84,75,9.22,TO,1612663264
vila velha,-20.3297,-40.2925,82.99,83,75,9.22,BR,1612662746
jamestown,42.097,-79.2353,17.6,53,1,6.91,US,1612663286
punta arenas,-53.15,-70.9167,51.8,66,0,17.27,CL,1612663382
ilulissat,69.2167,-51.1,26.6,43,0,27.63,GL,1612663423
pisco,-13.7,-76.2167,71.6,83,75,9.22,PE,1612663052
alofi,-19.0595,-169.9187,86.0,70,100,12.66,NU,1612662853
hasaki,35.7333,140.8333,57.0,50,20,5.75,JP,1612663430
qaanaaq,77.484,-69.3632,10.69,87,100,7.56,GL,1612663417
albany,42.6001,-73.9662,25.0,48,0,2.01,US,1612663015
east london,-33.0153,27.9116,72.7,87,75,17.58,ZA,1612663418
tiksi,71.6872,128.8694,-25.76,84,100,5.35,RU,1612663338
rikitea,-23.1203,-134.9692,78.78,69,73,10.56,PF,1612663245
yumen,40.2833,97.2,32.0,65,100,4.41,CN,1612663359
mahebourg,-20.4081,57.7,75.0,86,4,3.0,MU,1612663431
bluff,-46.6,168.3333,61.45,71,0,7.96,NZ,1612663269
geraldton,-28.7667,114.6,73.4,78,75,23.02,AU,1612663490
ancud,-41.8697,-73.8203,62.6,45,0,10.36,CL,1612663442
hobart,-42.8794,147.3294,66.0,63,75,17.27,AU,1612663379
mahon,39.8885,4.2658,55.4,94,40,10.36,ES,1612663499
dikson,73.5069,80.5464,-27.47,87,90,9.57,RU,1612663302
tasiilaq,65.6145,-37.6368,32.0,59,82,27.63,GL,1612663419
barrow,71.2906,-156.7887,-4.0,77,90,14.97,US,1612663382
provideniya,64.3833,-173.3,1.45,87,2,7.23,RU,1612663380
beloha,-25.1667,45.05,73.99,95,23,3.09,MG,1612663043
mataura,-46.1927,168.8643,81.86,44,5,1.34,NZ,1612663286
kieta,-6.2167,155.6333,87.33,64,85,8.01,PG,1612663291
saskylakh,71.9167,114.0833,-42.0,78,24,7.58,RU,1612663257
hermanus,-34.4187,19.2345,66.99,94,98,4.76,ZA,1612663390
nizhniy chir,48.3597,43.0865,21.69,86,57,13.94,RU,1612663535
hovd,48.0056,91.6419,8.02,91,0,1.54,MN,1612663358
mar del plata,-38.0023,-57.5575,64.0,77,20,11.5,AR,1612663378
samarai,-10.6167,150.6667,86.45,68,51,4.09,PG,1612663431
yeroham,30.9872,34.9314,48.0,100,0,0.27,IL,1612663548
roma,43.2128,-75.4557,19.4,58,1,5.1,US,1612663087
iqaluit,63.7506,-68.5145,26.6,68,90,11.5,CA,1612663439
zhezkazgan,47.8043,67.7144,15.19,94,39,15.75,KZ,1612663422
kamennomostskoye,43.7372,43.0514,33.8,93,90,2.24,RU,1612663561
pisz,53.6274,21.8125,-7.6,84,0,3.44,PL,1612663565
kormilovka,55.0026,74.1028,33.8,100,75,17.9,RU,1612663568
coquimbo,-29.9533,-71.3436,60.8,82,0,6.91,CL,1612663281
kampot,10.6167,104.1833,75.2,94,40,1.14,KH,1612663571
cuauhtemoc,28.4167,-106.8667,45.0,28,14,1.99,MX,1612663578
cape town,-33.9258,18.4232,70.0,83,20,11.5,ZA,1612663387
saint-joseph,-21.3667,55.6167,78.8,69,40,6.91,RE,1612663100
codrington,-38.2667,141.9667,61.11,65,100,12.26,AU,1612663381
tuatapere,-46.1333,167.6833,71.83,47,10,6.04,NZ,1612663136
yar-sale,66.8333,70.8333,-26.19,86,100,16.87,RU,1612663335
isangel,-19.55,169.2667,86.0,79,20,5.75,VU,1612663338
praia da vitoria,38.7333,-27.0667,60.8,82,20,13.76,PT,1612663600
thompson,55.7435,-97.8558,-27.4,68,40,12.66,CA,1612663386
bengkulu,-3.8004,102.2655,83.34,63,84,4.12,ID,1612663425
khatanga,71.9667,102.5,-35.28,78,0,8.55,RU,1612663295
kodiak,57.79,-152.4072,35.6,64,1,5.75,US,1612663444
mazara del vallo,37.6641,12.588,66.0,59,0,20.71,IT,1612663616
banjar,-8.19,114.9675,82.4,83,20,2.3,ID,1612663620
nikolskoye,59.7035,30.7861,10.4,85,75,15.66,RU,1612663419
bubaque,11.2833,-15.8333,78.51,53,51,23.53,GW,1612663402
saint-philippe,-21.3585,55.7679,78.8,69,40,6.91,RE,1612663372
hilo,19.7297,-155.09,77.0,57,75,6.91,US,1612663387
deputatskiy,69.3,139.9,-31.61,84,9,1.25,RU,1612663276
avarua,-21.2078,-159.775,86.0,66,17,11.5,CK,1612663383
severo-kurilsk,50.6789,156.125,22.71,93,93,21.92,RU,1612663435
bairiki,1.3292,172.9752,84.2,74,75,10.36,KI,1612663648
nabire,-3.3667,135.4833,82.22,68,100,1.14,ID,1612663651
atuona,-9.8,-139.0333,79.99,80,73,18.21,PF,1612663418
san patricio,28.017,-97.5169,64.4,63,1,3.44,US,1612663430
ginir,7.1333,40.7,55.78,59,100,2.48,ET,1612663661
sechura,-5.5569,-80.8222,76.6,65,49,13.24,PE,1612663287
ushuaia,-54.8,-68.3,50.0,76,75,12.66,AR,1612663339
longonjo,-12.9067,15.2533,64.24,73,100,1.88,AO,1612663671
labuhan,-6.8844,112.2051,83.25,77,3,12.88,ID,1612662942
burnie,-41.0667,145.9167,61.0,85,5,5.01,AU,1612663315
cabatuan,10.8794,122.486,81.19,79,78,14.16,PH,1612663681
saint george,37.1041,-113.5841,51.8,25,1,6.91,US,1612663217
cabo san lucas,22.8909,-109.9124,68.0,68,20,3.44,MX,1612663390
georgetown,5.4112,100.3354,82.4,74,20,8.05,MY,1612663280
xining,36.6167,101.7667,25.27,63,97,1.97,CN,1612663475
fort collins,40.5853,-105.0844,27.0,80,20,10.36,US,1612663495
berlevag,70.8578,29.0864,26.29,95,100,26.44,NO,1612663392
luangwa,-15.6167,30.4167,71.62,93,99,1.9,ZM,1612663703
ketchikan,55.3422,-131.6461,37.4,86,90,9.22,US,1612663528
carrickmacross,53.9728,-6.7189,42.01,78,92,11.99,IE,1612663710
vuyyuru,16.3667,80.85,68.0,94,73,5.03,IN,1612663714
lebu,-37.6167,-73.65,57.81,93,24,1.86,CL,1612663421
butaritari,3.0707,172.7902,80.98,81,71,20.78,KI,1612663387
ust-tsilma,65.441,52.1498,-33.09,80,95,9.53,RU,1612663723
longyearbyen,78.2186,15.6401,15.8,79,75,13.8,SJ,1612663423
brazzaville,-4.2658,15.2832,75.2,94,78,3.44,CG,1612663730
kavaratti,10.5669,72.642,81.46,59,57,8.57,IN,1612663733
tautira,-17.7333,-149.15,86.0,62,20,11.5,PF,1612663463
norman wells,65.282,-126.8329,-27.4,68,75,2.3,CA,1612663332
tahe,52.3333,124.7333,-5.75,85,30,3.31,CN,1612663743
kinango,-4.1372,39.3153,75.9,81,92,3.29,KE,1612663746
antalaha,-14.9003,50.2788,74.68,86,95,3.85,MG,1612663750
nyurba,63.2842,118.3319,-26.27,85,86,2.93,RU,1612663701
new norfolk,-42.7826,147.0587,66.0,47,82,3.0,AU,1612663289
bambous virieux,-20.3428,57.7575,75.0,86,3,3.0,MU,1612663462
vestmannaeyjar,63.4427,-20.2734,38.37,76,0,27.38,IS,1612663755
muros,42.7762,-9.0603,43.0,93,40,4.61,ES,1612663753
havelock,34.8791,-76.9013,46.0,57,90,9.22,US,1612663480
san cristobal,7.7669,-72.225,66.36,90,100,1.21,VE,1612663344
port alfred,-33.5906,26.891,66.99,87,33,4.0,ZA,1612663040
upata,8.0086,-62.3989,75.0,84,100,5.01,VE,1612663515
kavieng,-2.5744,150.7967,85.33,64,29,2.33,PG,1612663782
tsuruoka,38.7217,139.8217,39.72,92,100,16.08,JP,1612663785
kailua,21.4022,-157.7394,78.8,50,20,13.8,US,1612663789
port blair,11.6667,92.75,81.28,69,59,9.19,IN,1612663792
castro,-24.7911,-50.0119,61.34,92,44,10.78,BR,1612663248
shenjiamen,29.9576,122.298,54.46,71,0,3.27,CN,1612663799
quechultenango,17.4167,-99.2167,67.41,80,0,2.55,MX,1612663802
lasa,46.6166,10.7002,39.0,93,99,4.12,IT,1612663405
ribeira grande,38.5167,-28.7,61.18,89,94,21.59,PT,1612663445
richards bay,-28.783,32.0377,72.34,86,87,7.07,ZA,1612663270
tara,56.8944,74.371,27.66,98,100,16.06,RU,1612663815
yellowknife,62.456,-114.3525,-40.0,74,1,3.44,CA,1612663384
arraial do cabo,-22.9661,-42.0278,75.13,83,100,4.81,BR,1612663274
iquique,-20.2208,-70.1431,71.6,53,0,10.36,CL,1612663799
clyde river,70.4692,-68.5914,-7.6,77,90,2.3,CA,1612663280
kolkwitz,51.75,14.25,24.01,73,100,5.01,DE,1612663832
turkistan,43.0,68.0,39.06,86,100,4.72,KZ,1612663716
nanortalik,60.1432,-45.2371,24.98,88,100,9.28,GL,1612663277
liverpool,53.4106,-2.9779,39.2,81,90,13.8,GB,1612663842
asau,46.4333,26.4,27.0,73,100,3.65,RO,1612663350
hithadhoo,-0.6,73.0833,81.36,76,0,12.19,MV,1612663284
sabang,5.8933,95.3214,82.54,75,13,18.12,ID,1612663713
lajas,18.05,-67.0593,75.99,85,100,5.57,PR,1612663855
puerto ayora,-0.7393,-90.3518,77.0,94,66,6.76,EC,1612663250
yeppoon,-23.1333,150.7333,95.0,46,75,5.75,AU,1612663862
mount gambier,-37.8333,140.7667,62.6,59,90,13.8,AU,1612663866
nago,26.5881,127.9761,69.8,56,40,9.22,JP,1612663470
namtsy,62.7161,129.6658,-41.8,60,99,4.47,RU,1612663873
lehi,40.3916,-111.8508,42.01,45,40,3.65,US,1612663876
casino,-28.8667,153.05,89.6,51,79,4.61,AU,1612663879
namatanai,-3.6667,152.4333,86.16,63,86,6.6,PG,1612663388
nome,64.5011,-165.4064,17.6,73,90,3.44,US,1612663245
camacha,33.0833,-16.3333,59.0,77,40,13.8,PT,1612663322
miyako,39.6367,141.9525,41.68,81,62,3.13,JP,1612663892
te anau,-45.4167,167.7167,75.9,38,0,5.68,NZ,1612663298
kwekwe,-18.9281,29.8149,64.08,97,43,4.16,ZW,1612663899
kumbhraj,24.3667,77.05,50.79,50,0,2.98,IN,1612663904
taseyevo,57.2169,94.8978,23.88,97,100,5.23,RU,1612663907
piekary slaskie,50.3802,18.9265,21.0,79,90,13.8,PL,1612663910
dicabisagan,17.0818,122.4157,79.95,77,66,4.07,PH,1612663914
koslan,63.4564,48.8989,-24.41,82,47,10.38,RU,1612663740
itaituba,-4.2761,-55.9836,82.4,83,0,2.55,BR,1612663920
snezhnogorsk,69.1933,33.2531,23.0,86,75,13.42,RU,1612663923
broome,42.2506,-75.833,24.8,33,1,4.61,US,1612663381
walvis bay,-22.9575,14.5053,64.0,94,29,5.75,NA,1612663930
sobolevo,54.4299,31.8996,-4.83,92,68,8.05,RU,1612663369
palmas,-10.2128,-48.3603,77.0,94,75,2.3,BR,1612663936
aleksandrov gay,50.147,48.5704,17.2,89,71,14.88,RU,1612663939
olavarria,-36.8927,-60.3225,72.0,69,2,8.99,AR,1612663942
vydrino,51.485,104.8461,15.15,86,78,0.51,RU,1612663946
plettenberg bay,-34.0527,23.3716,68.61,73,69,6.58,ZA,1612663949
tanout,14.9709,8.8879,60.21,27,49,10.71,NE,1612663802
labrea,-7.2586,-64.7981,75.38,96,100,2.77,BR,1612663955
shiyan,32.6475,110.7781,59.0,27,100,2.33,CN,1612663844
catalao,-18.1658,-47.9464,68.2,96,100,3.06,BR,1612663828
lompoc,34.6391,-120.4579,55.4,87,1,6.91,US,1612663447
guerrero negro,27.9769,-114.0611,63.61,54,0,9.46,MX,1612663310
ligayan,4.6533,119.4706,82.0,80,100,13.15,PH,1612663971
ambulu,-8.345,113.6058,85.08,67,42,0.81,ID,1612663776
assiniboia,49.6334,-105.9845,-16.6,69,100,5.75,CA,1612663978
morehead,37.2711,-87.1764,37.99,80,90,11.5,US,1612663981
yaan,7.3833,8.5667,73.72,35,0,5.48,NG,1612663985
chokurdakh,70.6333,147.9167,-21.44,86,95,4.14,RU,1612663822
presidencia roque saenz pena,-26.7852,-60.4388,73.99,66,0,1.99,AR,1612663991
ife,7.4667,4.5667,72.41,99,99,1.95,NG,1612663994
luanda,-8.8368,13.2343,78.8,83,75,4.61,AO,1612663998
vozrozhdeniye,44.5503,38.2136,26.01,80,100,7.16,RU,1612664001
chuy,-33.6971,-53.4616,66.79,88,0,8.7,UY,1612663244
margate,51.3813,1.3862,36.0,85,100,8.01,GB,1612663420
hohhot,40.8106,111.6522,15.8,62,0,2.24,CN,1612663841
esperance,-33.8667,121.9,60.8,94,75,12.66,AU,1612663276
hofn,64.2539,-15.2082,32.36,92,91,19.08,IS,1612663712
ushtobe,45.2514,77.9838,36.82,88,100,15.39,KZ,1612664021
inhambane,-23.865,35.3833,76.26,88,93,6.69,MZ,1612663823
meulaboh,4.1363,96.1285,79.41,83,80,4.5,ID,1612663777
paralimni,35.0375,33.9833,55.0,93,0,2.3,CY,1612664031
kalmunai,7.4167,81.8167,77.86,87,24,7.94,LK,1612664034
bonavista,48.6499,-53.1147,39.0,100,89,9.22,CA,1612664037
vernon,50.2581,-119.2691,34.0,80,89,4.61,CA,1612664040
sitka,57.0531,-135.33,32.0,55,20,5.75,US,1612664044
parabel,58.6978,81.4825,32.18,97,100,13.13,RU,1612664047
college,64.8569,-147.8028,-5.01,71,90,1.57,US,1612664050
awbari,26.5921,12.7805,61.16,28,0,13.31,LY,1612664053
loralai,30.3705,68.598,44.01,49,0,0.96,PK,1612664057
taunggyi,20.7833,97.0333,64.49,56,96,2.01,MM,1612664060
neryungri,56.6709,124.6491,-14.57,86,100,2.13,RU,1612664027
chingola,-12.529,27.8838,63.59,99,100,4.41,ZM,1612664066
willowmore,-33.2926,23.4895,62.42,58,0,4.23,ZA,1612664069
grindavik,63.8424,-22.4338,33.8,60,0,18.41,IS,1612664073
egvekinot,66.3167,-179.1667,-4.58,78,0,7.81,RU,1612664076
okakarara,-20.5833,17.4333,68.47,47,99,4.34,NA,1612664079
ponta delgada,37.7333,-25.6667,59.0,88,75,23.02,PT,1612664083
saldanha,-33.0117,17.9442,64.4,88,0,6.91,ZA,1612664035
galesong,-5.3166,119.3661,84.2,79,20,2.3,ID,1612664089
tessalit,20.1986,1.0114,67.71,22,100,6.24,ML,1612664092
haines junction,60.7522,-137.5108,-18.4,69,52,1.14,CA,1612664096
crowley,30.2141,-92.3746,55.99,93,73,3.89,US,1612664099
nouadhibou,20.931,-17.0347,60.8,72,0,21.85,MR,1612664102
pochutla,15.7432,-96.4661,79.0,80,9,3.0,MX,1612664106
rawson,-43.3002,-65.1023,58.26,69,32,19.86,AR,1612663890
kiama,-34.6833,150.8667,79.0,77,23,1.01,AU,1612664113
carutapera,-1.195,-46.02,78.1,86,62,5.93,BR,1612664116
katsuura,35.1333,140.3,57.0,66,20,5.75,JP,1612663978
kanungu,-0.9575,29.7897,64.8,62,94,2.44,UG,1612664122
montbrison,45.6667,4.0833,48.2,76,90,9.22,FR,1612664125
killybegs,54.6333,-8.45,39.0,88,80,10.0,IE,1612664129
salinopolis,-0.6136,-47.3561,79.05,88,100,9.33,BR,1612664132
ponta do sol,32.6667,-17.1,54.0,65,23,7.0,PT,1612664135
emba,48.8264,58.1442,9.75,95,99,10.98,KZ,1612664138
alice springs,-23.7,133.8833,87.8,23,4,13.8,AU,1612663785
mugur-aksy,50.35,90.5,4.89,85,0,6.55,RU,1612664145
raga,8.4596,25.678,53.58,39,0,3.71,SS,1612664098
sorong,-0.8833,131.25,82.0,77,100,1.05,ID,1612664152
erenhot,43.6475,111.9767,7.18,90,0,6.35,CN,1612664155
clarence town,-32.5833,151.7833,84.0,44,40,14.97,AU,1612664160
colac,-38.3333,143.5833,62.01,92,100,1.01,AU,1612664163
barra dos coqueiros,-10.9089,-37.0386,80.6,78,75,10.36,BR,1612664166
darab,28.7519,54.5444,51.66,50,67,3.62,IR,1612664169
mandalgovi,45.7625,106.2708,8.37,84,0,6.02,MN,1612663801
athens,37.9795,23.7162,60.01,81,0,3.0,GR,1612663939
abdanan,32.9926,47.4198,48.02,90,100,5.84,IR,1612664132
north bend,43.4065,-124.2243,48.0,93,90,4.61,US,1612664011
narsaq,60.9167,-46.05,42.8,39,75,20.71,GL,1612664186
leningradskiy,69.3833,178.4167,-10.71,74,17,5.03,RU,1612664189
eydhafushi,5.1033,73.0708,81.48,71,12,11.12,MV,1612663790
pilar,-9.5972,-35.9567,75.2,94,20,4.61,BR,1612664196
pokaran,26.9167,71.9167,56.17,36,0,6.69,IN,1612664199
posyet,42.6508,130.8046,16.74,81,0,11.3,RU,1612664202
hualmay,-11.0964,-77.6139,70.93,78,100,7.43,PE,1612664205
aksarka,66.5606,67.7975,-33.57,82,100,22.01,RU,1612663750
marsaxlokk,35.8419,14.5431,64.0,88,0,9.22,MT,1612664212
kruisfontein,-34.0033,24.7314,64.0,89,1,1.01,ZA,1612664002
bereznik,62.8551,42.7072,-13.83,86,67,9.06,RU,1612664219
carnarvon,-24.8667,113.6333,86.0,100,62,10.36,AU,1612664222
angleton,29.1694,-95.4319,61.0,88,1,3.44,US,1612664225
nuuk,64.1835,-51.7216,33.8,47,20,18.41,GL,1612664201
abu samrah,35.3029,37.1841,49.15,79,0,6.22,SY,1612664125
puerto baquerizo moreno,-0.9,-89.6,76.73,85,0,7.78,EC,1612663941
los llanos de aridane,28.6585,-17.9182,60.8,63,0,4.61,ES,1612664239
algodones,20.3888,-105.4773,72.0,83,40,5.75,MX,1612664242
general roca,-39.0333,-67.5833,75.2,69,0,2.3,AR,1612664005
dabola,10.75,-11.1167,72.61,21,42,3.38,GN,1612664249
hami,42.8,93.45,33.22,72,99,5.53,CN,1612663800
panguna,-6.3164,155.4848,85.46,58,91,1.54,PG,1612664255
banyo,6.75,11.8167,62.8,29,17,1.66,CM,1612664259
puri,19.8,85.85,67.28,68,0,13.47,IN,1612664262
kirakira,-10.4544,161.9205,79.56,86,100,8.79,SB,1612664265
olafsvik,64.8945,-23.7142,33.49,84,24,16.08,IS,1612664111
harrisonville,38.6533,-94.3488,19.4,79,90,12.66,US,1612664186
kimbe,-5.5502,150.1429,87.96,62,91,4.47,PG,1612664275
lucapa,-8.4192,20.7447,67.19,96,100,1.07,AO,1612664278
dedza,-14.3779,34.3332,59.88,100,92,2.46,MW,1612664281
faya,18.3851,42.4509,48.2,81,40,0.85,SA,1612664285
mahibadhoo,3.7833,72.9667,81.3,74,61,12.44,MV,1612663767
atar,20.5169,-13.0499,57.7,39,47,12.48,MR,1612664006
torbay,47.6666,-52.7314,42.8,93,75,24.16,CA,1612663523
toora-khem,52.4675,96.11,-0.02,89,0,2.08,RU,1612664298
rodrigues alves,-7.738,-72.6509,74.62,92,100,1.14,BR,1612663790
vila do maio,15.1333,-23.2167,68.0,60,75,23.02,CV,1612664305
auki,-8.7676,160.7034,77.16,88,100,8.63,SB,1612664111
mananjary,-21.2167,48.3333,78.62,83,88,10.22,MG,1612664311
carnduff,49.1667,-101.8009,-25.01,76,8,8.77,CA,1612663797
roald,62.5833,6.1333,26.6,63,0,16.11,NO,1612664318
kungurtug,50.5994,97.5228,3.61,86,0,1.88,RU,1612664321
olean,42.0776,-78.4297,19.4,45,1,4.61,US,1612664324
zholymbet,51.7433,71.7122,16.07,94,100,30.2,KZ,1612664328
acarau,-2.8856,-40.12,78.1,85,33,10.94,BR,1612664331
trelew,-43.249,-65.3051,57.72,67,23,18.57,AR,1612664334
magdagachi,53.45,125.8,-10.23,84,0,3.78,RU,1612664337
sakakah,29.9697,40.2064,44.6,76,0,5.75,SA,1612664341
changji,44.0167,87.3167,8.6,85,90,2.24,CN,1612664344
chumikan,54.7183,135.315,-7.31,84,100,14.58,RU,1612664347
pangai,-19.8,-174.35,80.13,83,100,22.01,TO,1612663799
urengoy,65.9667,78.3667,-14.48,88,100,12.55,RU,1612664354
longyan,25.1072,117.0225,74.7,41,0,1.74,CN,1612664357
ati,13.2154,18.3353,62.76,26,53,11.65,TD,1612664360
mount abu,24.6,72.7,43.21,59,0,4.47,IN,1612664363
rorvik,64.8621,11.2373,23.4,91,17,7.0,NO,1612664367
kaitangata,-46.2817,169.8464,66.0,75,6,8.01,NZ,1612664293
zhigansk,66.7697,123.3711,-35.57,81,100,13.67,RU,1612664373
magadi,12.9667,77.2333,57.2,88,68,4.0,IN,1612664377
sao filipe,14.8961,-24.4956,69.53,73,18,15.32,CV,1612664380
faanui,-16.4833,-151.75,83.08,65,0,10.07,PF,1612664384
makakilo city,21.3469,-158.0858,78.8,41,1,14.97,US,1612664184
santa maria,-29.6842,-53.8069,66.2,94,0,0.87,BR,1612664390
mandera,3.9366,41.867,72.77,72,0,8.46,KE,1612664394
klaksvik,62.2266,-6.589,35.6,60,40,17.27,FO,1612664400
rio gallegos,-51.6226,-69.2181,52.65,59,29,2.37,AR,1612664403
furstenfeld,47.05,16.0833,37.99,66,100,1.54,AT,1612664406
bourail,-21.5667,165.4833,82.13,72,45,5.14,NC,1612664410
neijiang,29.5835,105.0622,56.66,54,0,2.1,CN,1612664413
houma,29.5958,-90.7195,54.0,100,90,8.05,US,1612664416
harbour breton,47.4833,-55.7983,37.45,79,50,24.58,CA,1612664420
chubbuck,42.9208,-112.4661,37.0,55,1,20.71,US,1612664423
lavrentiya,65.5833,-171.0,-9.98,79,0,1.74,RU,1612664427
tashla,51.7716,52.7427,6.55,92,98,14.94,RU,1612664350
nyagan,62.1406,65.3936,-4.81,91,100,10.78,RU,1612664404
lorengau,-2.0226,147.2712,86.38,66,100,5.55,PG,1612664437
ozinki,51.1786,49.6769,8.2,94,97,11.56,RU,1612664440
kota kinabalu,5.9749,116.0724,86.0,74,20,3.44,MY,1612664443
genhe,50.7833,121.5167,-8.16,84,36,1.77,CN,1612664446
turayf,31.6725,38.6637,39.2,100,0,6.91,SA,1612664187
silver city,32.7701,-108.2803,43.0,26,1,6.91,US,1612664296
puntarenas,9.9763,-84.8384,73.4,83,0,2.3,CR,1612664456
iglino,54.8324,56.4126,1.4,78,75,17.9,RU,1612664459
christchurch,-43.5333,172.6333,68.0,60,0,23.02,NZ,1612664333
usinsk,65.9939,57.5281,-33.3,81,96,14.58,RU,1612664297
chara,56.9064,118.2631,-10.05,75,35,0.45,RU,1612664307
valle hermoso,25.6667,-97.8333,64.4,94,1,2.3,MX,1612664473
sao miguel do araguaia,-13.275,-50.1628,72.21,98,100,8.14,BR,1612664476
puerto escondido,15.85,-97.0667,77.83,74,1,7.2,MX,1612664479
pimentel,-6.8367,-79.9342,70.0,87,100,4.0,PE,1612664462
yinchuan,38.4681,106.2731,31.62,77,0,6.46,CN,1612664486
bristol,41.8334,-71.1662,35.6,48,1,3.44,US,1612664474
nong khai,17.9167,103.0833,78.01,72,0,4.05,TH,1612664492
lodja,-3.4833,23.4333,71.44,86,75,1.36,CD,1612664346
pangnirtung,66.1451,-65.7125,23.5,80,76,3.53,CA,1612664499
gat,31.61,34.7642,55.0,100,0,1.7,IL,1612664502
chiang khong,20.2613,100.4046,73.99,99,43,0.69,TH,1612664272
yulara,-25.2406,130.9889,87.8,22,1,16.11,AU,1612664509
victoria,22.2855,114.1577,75.2,41,0,11.5,HK,1612664389
kawhia,-38.0651,174.8183,82.0,38,87,5.01,NZ,1612664515
tarko-sale,64.9225,77.785,-5.35,92,100,15.82,RU,1612664519
otane,-39.8833,176.6333,78.01,39,90,8.01,NZ,1612664522
kaele,10.1092,14.4508,67.51,24,85,10.78,CM,1612664525
tutoia,-2.7619,-42.2744,80.69,79,97,13.18,BR,1612664529
dwarka,22.2394,68.9678,68.07,52,0,15.46,IN,1612664532
estelle,29.8458,-90.1067,55.0,100,90,8.05,US,1612664535
peruibe,-24.32,-46.9983,71.96,87,78,5.3,BR,1612664538
henties bay,-22.116,14.2845,64.0,90,7,4.0,NA,1612664542
caluquembe,-13.7833,14.6833,62.29,66,100,5.1,AO,1612664545
puerto ayacucho,5.6639,-67.6236,81.55,61,100,5.53,VE,1612664548
buala,-8.145,159.5921,77.7,82,100,4.92,SB,1612664312
bafq,31.6128,55.4107,52.34,40,15,5.59,IR,1612664492
scharding,48.4529,13.4372,36.0,85,99,5.01,AT,1612664558
baykit,61.67,96.37,19.04,94,100,6.02,RU,1612664561
taywarah,33.35,64.4167,32.05,78,0,3.27,AF,1612664564
rosarito,32.3333,-117.0333,62.01,76,1,5.75,MX,1612664568
ust-koksa,50.2696,85.6108,17.1,87,81,2.33,RU,1612664571
weatherford,32.7593,-97.7972,46.0,81,0,1.01,US,1612664574
pevek,69.7008,170.3133,-6.57,87,0,4.9,RU,1612664278
mehamn,71.0357,27.8492,25.79,93,100,22.01,NO,1612664581
farah,32.5,62.5,44.58,50,81,1.1,AF,1612664584
phonhong,18.5007,102.4166,71.6,68,0,2.3,LA,1612664587
bosaso,11.2842,49.1816,73.2,74,60,5.48,SO,1612664591
garden city,42.3256,-83.331,18.0,62,90,9.22,US,1612664546
ayagoz,47.9714,80.4392,28.6,97,100,24.99,KZ,1612664597
kapoeta,4.7717,33.5903,71.62,22,1,6.02,SS,1612664600
airai,-8.9266,125.4092,72.81,73,63,4.99,TL,1612664604
edson,53.5835,-116.4356,-13.0,70,1,4.61,CA,1612664309
chippewa falls,44.9369,-91.3929,-5.8,59,1,10.36,US,1612664102
rocha,-34.4833,-54.3333,63.48,94,3,4.12,UY,1612664546
kalivia,35.0583,25.2272,55.99,87,0,6.91,GR,1612664617
milkovo,54.7167,158.6167,20.86,96,100,1.54,RU,1612664620
marawi,7.9986,124.2928,81.0,83,74,3.0,PH,1612664336
corinth,37.9407,22.9573,53.01,81,0,3.0,GR,1612664485
brigantine,39.4101,-74.3646,39.99,69,1,1.32,US,1612664630
nchelenge,-9.3451,28.734,71.94,84,100,10.38,ZM,1612664633
tokmak,47.2514,35.7058,25.48,87,85,9.8,UA,1612664636
namibe,-15.1961,12.1522,70.61,81,35,5.08,AO,1612664640
borger,52.9233,6.7931,28.99,87,100,15.01,NL,1612664643
hvittingfoss,59.4833,10.0167,16.0,1,0,6.98,NO,1612664646
fortuna,40.5982,-124.1573,48.99,87,90,9.22,US,1612664649
volkhov,59.9258,32.3382,6.01,53,98,8.21,RU,1612664653
kudahuvadhoo,2.6708,72.8944,80.8,78,12,14.14,MV,1612664656
nguru,12.8791,10.4526,60.98,28,99,9.08,NG,1612664660
ambilobe,-13.2,49.05,72.72,94,99,2.75,MG,1612664663
boende,-0.2167,20.8667,74.14,82,57,1.86,CD,1612664666
sangin,32.0728,64.8359,49.06,42,69,1.97,AF,1612664669
obera,-27.4871,-55.1199,61.16,90,0,2.39,AR,1612664675
mujiayingzi,42.1167,118.7833,9.5,87,0,6.2,CN,1612664678
asyut,27.181,31.1837,53.6,76,0,6.91,EG,1612664682
honningsvag,70.9821,25.9704,27.81,94,100,25.75,NO,1612664685
adrar,20.5022,-10.0711,55.92,42,100,9.86,MR,1612664688
talnakh,69.4865,88.3972,-29.16,72,0,1.81,RU,1612664691
merritt island,28.5392,-80.672,71.01,94,90,4.61,US,1612664694
vila franca do campo,37.7167,-25.4333,59.0,88,75,19.57,PT,1612664698
marzuq,14.4,46.4667,55.44,74,0,1.5,YE,1612664701
coahuayana,18.7333,-103.6833,71.01,83,0,0.27,MX,1612664705
ngunguru,-35.6167,174.5,72.0,64,96,8.99,NZ,1612664708
gari,59.4307,62.3497,-7.44,91,100,13.15,RU,1612664712
koulikoro,14.0,-7.75,73.38,23,88,13.27,ML,1612664482
debre birhan,9.6833,39.5333,45.12,96,73,4.7,ET,1612664718
iquitos,-3.7481,-73.2472,75.2,94,0,2.51,PE,1612664721
prudyanka,50.2361,36.1683,8.6,72,0,11.18,UA,1612664724
san policarpo,12.1791,125.5072,81.28,84,100,15.48,PH,1612664728
oyama,36.3,139.8,59.0,33,20,11.5,JP,1612664731
vostok,46.4856,135.8833,-3.82,89,100,3.58,RU,1612664734
teluknaga,-6.0989,106.6381,82.4,78,75,14.97,ID,1612664568
smithers,54.7804,-127.1743,23.0,100,90,4.61,CA,1612664741
lagoa,39.05,-27.9833,60.15,91,100,27.47,PT,1612664744
zeya,53.75,127.2667,-6.77,80,0,3.02,RU,1612664481
tazovskiy,67.4667,78.7,-25.15,86,64,10.31,RU,1612664751
praia,14.9215,-23.5087,68.0,60,75,23.02,CV,1612664754
honiara,-9.4333,159.95,77.61,89,100,7.96,SB,1612664728
portland,45.5234,-122.6762,46.99,87,90,3.44,US,1612664126
charcas,23.1333,-101.1167,62.71,24,0,8.75,MX,1612664764
cidreira,-30.1811,-50.2056,67.93,75,71,6.02,BR,1612664767
nizwa,22.9333,57.5333,48.79,64,0,0.72,OM,1612664770
tommot,58.9564,126.2925,-14.17,83,100,0.38,RU,1612664773
santa luzia,-19.7697,-43.8514,68.0,94,90,7.43,BR,1612664776
acapulco,16.8634,-99.8901,80.6,74,1,4.61,MX,1612664780
pereira barreto,-20.6383,-51.1092,68.95,73,0,4.12,BR,1612664783
umm lajj,25.0213,37.2685,67.66,50,0,18.75,SA,1612664786
myanaung,18.2833,95.3167,75.85,51,84,2.66,MM,1612664789
kupang,-10.1667,123.5833,84.2,84,75,10.36,ID,1612664651
satis,54.9229,43.2298,-8.05,89,100,10.13,RU,1612664796
bloemfontein,-29.1211,26.214,60.8,88,0,4.61,ZA,1612664596
hounde,11.5,-3.5167,76.68,22,99,2.42,BF,1612664803
limoges,45.75,1.3333,41.0,93,90,12.66,FR,1612664806
savelugu,9.6244,-0.8253,81.95,19,70,5.21,GH,1612664738
petropavlovsk-kamchatskiy,53.0452,158.6483,30.2,59,40,11.18,RU,1612664810
prince rupert,54.3161,-130.3201,39.2,75,75,8.05,CA,1612664816
necochea,-38.5473,-58.7368,59.0,84,2,11.56,AR,1612664602
ust-karsk,52.7011,118.8077,-9.31,83,97,1.3,RU,1612664822
hay river,60.8156,-115.7999,-34.6,67,10,2.3,CA,1612664574
sorland,67.667,12.6934,35.4,79,11,17.87,NO,1612664828
nara,34.6851,135.8049,57.99,66,20,13.8,JP,1612664832
minuri,16.535,121.8574,77.13,81,93,1.43,PH,1612664835
muravlenko,63.7898,74.523,3.97,95,100,19.53,RU,1612664838
twentynine palms,34.1356,-116.0542,64.4,14,1,1.01,US,1612664842
angouleme,45.65,0.15,41.0,93,0,6.91,FR,1612664845
morondava,-20.2833,44.2833,80.1,80,1,8.16,MG,1612664848
creel,27.75,-107.6333,42.44,59,0,3.65,MX,1612664851
saint-augustin,51.226,-58.6502,32.47,97,100,19.8,CA,1612664855
fenoarivo atsinanana,-17.3667,49.4167,75.13,88,99,4.07,MG,1612664858
waipawa,-41.4122,175.5153,75.99,60,89,8.05,NZ,1612664861
la paz,-16.5,-68.15,46.4,76,40,6.91,BO,1612664757
marsabit,2.3284,37.9899,68.22,65,0,9.37,KE,1612664868
samarinda,-0.5,117.15,84.72,69,100,3.09,ID,1612664871
sakaiminato,35.55,133.2333,51.8,66,75,9.22,JP,1612664874
tual,-5.6667,132.75,83.88,79,100,20.42,ID,1612664878
svetlyy,54.675,20.1347,21.99,84,0,2.24,RU,1612664881
grand gaube,-20.0064,57.6608,75.99,86,2,1.99,MU,1612664884
hvolsvollur,63.7533,-20.2243,27.61,91,0,11.05,IS,1612664887
dibrugarh,27.4833,94.9,60.8,82,75,6.91,IN,1612664890
thomaston,32.8882,-84.3266,39.99,93,90,13.8,US,1612664894
teguldet,57.3064,88.1667,30.74,98,100,7.83,RU,1612664897
chunoyar,57.4467,97.3217,16.48,96,100,4.79,RU,1612664900
rockland,41.1668,-74.0496,30.99,69,86,3.02,US,1612664903
pitimbu,-7.4706,-34.8086,78.8,83,20,2.3,BR,1612664907
karaman,37.0833,33.25,42.69,59,0,6.2,TR,1612664910
dolores,-36.3132,-57.6792,61.3,90,0,8.9,AR,1612664914
troitskoye,52.9821,84.6757,27.3,93,75,13.44,RU,1612664917
thinadhoo,0.5333,72.9333,81.43,74,0,12.97,MV,1612664920
ahipara,-35.1667,173.1667,69.31,66,95,1.61,NZ,1612664923
tilichiki,60.4667,166.1,18.03,88,100,17.92,RU,1612664926
khed brahma,24.0333,73.05,55.42,38,0,6.44,IN,1612664930
khasan,42.4308,130.6434,17.42,84,0,14.38,RU,1612664933
havre-saint-pierre,50.2334,-63.5986,28.4,93,90,31.07,CA,1612664936
lima,-12.0432,-77.0282,75.0,68,75,9.22,PE,1612664640
yining,29.0361,114.5636,61.36,69,39,0.87,CN,1612664793
saint-francois,46.4154,3.9054,46.4,93,90,11.5,FR,1612664946
palmer,42.1584,-72.3287,27.0,68,40,4.43,US,1612664804
belem de sao francisco,-8.7539,-38.9658,83.17,35,89,10.07,BR,1612664953
meridian,43.6121,-116.3915,48.2,43,90,6.91,US,1612664956
salalah,17.0151,54.0924,73.4,68,75,1.14,OM,1612664772
mkushi,-13.6202,29.3939,64.2,94,100,3.22,ZM,1612664963
salvador,13.8333,-88.9167,75.2,83,0,4.61,SV,1612664751
kattivakkam,13.2167,80.3167,71.6,83,20,2.3,IN,1612664969
hambantota,6.1241,81.1185,75.2,100,91,5.75,LK,1612664972
johi,26.6921,67.6133,54.09,36,0,4.41,PK,1612664975
jamame,0.0722,42.7506,73.08,90,7,6.93,SO,1612664979
waverly,42.7392,-84.6208,16.0,79,90,12.66,US,1612664982
lata,40.1629,-8.3327,50.0,66,40,11.5,PT,1612664782
kendari,-3.945,122.4989,83.73,74,100,1.68,ID,1612664827
tucuman,-26.8241,-65.2226,80.6,69,90,6.91,AR,1612664953
ballina,-28.8667,153.5667,89.6,61,100,10.36,AU,1612664995
port moresby,-9.4431,147.1797,91.4,62,40,11.5,PG,1612664998
nobres,-14.7203,-56.3275,76.03,72,99,1.74,BR,1612665002
komsomolskiy,40.4272,71.7189,41.0,60,99,4.61,UZ,1612665006
saint-pierre,-21.3393,55.4781,78.8,69,20,6.91,RE,1612665009
poronaysk,49.2167,143.1167,2.93,88,6,2.73,RU,1612665014
voh,-20.9667,164.7,84.61,60,13,7.2,NC,1612665017
charters towers,-20.1,146.2667,90.14,50,100,5.48,AU,1612665020
dabakala,8.3667,-4.4333,76.8,66,100,2.57,CI,1612665024
doiwala,30.1833,78.1167,56.46,36,0,3.74,IN,1612665027
gushi,34.6425,109.5843,53.96,36,100,4.79,CN,1612665030
viedma,-40.8135,-62.9967,63.0,67,100,1.01,AR,1612664773
batticaloa,7.7102,81.6924,79.88,83,22,10.58,LK,1612665037
mitsamiouli,-11.3847,43.2844,82.18,75,72,8.9,KM,1612665040
kuybysheve,47.358,36.6491,22.03,89,78,10.45,UA,1612665044
mayo,38.8876,-76.5119,42.8,60,1,6.24,US,1612665047
nordby,55.446,8.3979,24.01,80,75,14.97,DK,1612665051
miranda,3.2499,-76.2281,75.2,78,20,8.05,CO,1612665054
zaysan,47.4667,84.8667,23.32,90,99,0.87,KZ,1612665057
rantepao,-2.9701,119.8978,84.36,54,74,2.3,ID,1612665061
ferrol,43.4832,-8.2369,46.99,88,65,5.99,ES,1612665064
terrace bay,48.7834,-87.1,-2.2,71,80,2.3,CA,1612665068
big rapids,43.6981,-85.4837,12.99,85,90,5.75,US,1612665071
quatre cocos,-20.2078,57.7625,75.99,88,40,5.75,MU,1612665074
malanje,-9.5402,16.341,64.17,98,100,5.03,AO,1612665077
matara,5.9485,80.5353,77.94,82,76,4.34,LK,1612665033
davidson,36.1501,-86.7833,44.6,61,90,5.75,US,1612665084
eufaula,31.8913,-85.1455,45.0,93,90,5.75,US,1612664906
shubarkuduk,49.1447,56.4872,12.87,95,97,9.89,KZ,1612665091
puteyets,65.1716,57.091,-30.73,83,100,11.9,RU,1612665094
pozo colorado,-23.4923,-58.7972,67.19,71,0,4.72,PY,1612665097
cantaura,9.3057,-64.3584,74.91,74,99,13.85,VE,1612665100
leh,34.1667,77.5833,8.06,51,0,2.04,IN,1612665104
santa barbara,34.7333,-120.0343,62.01,67,1,6.91,US,1612665033
san roque,36.2107,-5.3842,53.6,76,75,14.97,ES,1612665110
ixtapa,20.7,-105.2,72.0,83,40,5.75,MX,1612665113
garmsar,35.2182,52.3409,49.86,70,100,1.01,IR,1612665117
cuite,-6.4836,-36.1536,67.77,97,73,8.3,BR,1612665120
kibala,9.1104,18.3463,75.2,19,0,6.91,TD,1612665123
freetown,8.484,-13.2299,77.09,72,18,5.77,SL,1612665127
black river,18.0264,-77.8487,77.0,73,20,4.61,JM,1612665130
gidole,5.65,37.3667,61.52,58,84,2.01,ET,1612665133
launceston,-41.45,147.1667,73.99,43,3,10.36,AU,1612665137
port lincoln,-34.7333,135.8667,63.73,64,95,12.53,AU,1612665140
shimoda,34.6667,138.95,57.2,58,20,4.61,JP,1612665143
bilma,18.6853,12.9164,58.64,30,4,5.61,NE,1612665146
berkakit,56.5807,124.7681,-13.85,87,100,3.33,RU,1612665150
lebanon,36.2081,-86.2911,43.0,61,90,6.17,US,1612664890
debre zeyit,8.75,38.9833,57.11,78,95,4.47,ET,1612665156
rancho palos verdes,33.7445,-118.387,59.0,51,1,8.05,US,1612665159
srednekolymsk,67.45,153.6833,-13.0,84,0,1.59,RU,1612665163
lazaro cardenas,17.9583,-102.2,73.26,76,0,1.57,MX,1612665166
marsa matruh,31.3525,27.2453,48.2,87,0,6.91,EG,1612665169
velika kladusa,45.1894,15.8117,43.0,87,43,2.26,BA,1612665172
edgewater,28.9889,-80.9023,66.2,94,90,6.55,US,1612665176
harnai,30.1005,67.9374,53.44,37,0,0.56,PK,1612665179
beryslav,46.8415,33.4284,27.7,85,93,8.48,UA,1612665182
ukiah,39.1502,-123.2078,57.2,58,1,3.44,US,1612665185
santiago de cao,-7.9589,-79.2392,70.32,79,100,9.89,PE,1612665189
el alto,-4.2714,-81.2147,72.82,79,31,13.89,PE,1612665192
kulhudhuffushi,6.6221,73.07,81.34,69,18,10.18,MV,1612665196
aracuai,-16.8497,-42.0703,71.83,89,100,0.45,BR,1612664946
staryy krym,45.0333,35.1,29.03,98,100,8.66,UA,1612665202
leopold,-38.1833,144.4667,68.0,68,90,17.27,AU,1612665206
cherskiy,68.75,161.3,-3.15,81,0,2.82,RU,1612665209
yangjiang,21.85,111.9667,78.01,45,0,6.17,CN,1612665212
avera,33.194,-82.5271,39.99,91,90,9.22,US,1612665215
plougastel-daoulas,48.3667,-4.3667,41.0,81,90,8.05,FR,1612665219
lobito,-12.3481,13.5456,73.9,82,100,2.08,AO,1612665222
constitucion,-35.3333,-72.4167,56.59,90,19,4.68,CL,1612665225
gloversville,43.0528,-74.3438,19.99,49,1,4.61,US,1612665228
slave lake,55.2834,-114.769,-25.6,68,1,2.3,CA,1612665231
puerto colombia,10.9878,-74.9547,78.8,78,0,12.66,CO,1612665235
xingyi,24.1877,102.817,53.4,83,93,2.04,CN,1612665238
terney,45.0503,136.6092,10.09,83,0,11.79,RU,1612665241
palu,-0.8917,119.8707,90.45,48,100,3.04,ID,1612665109
ust-kuyga,70.0167,135.6,-26.5,82,100,5.35,RU,1612665248
vanimo,-2.6741,141.3028,82.13,81,99,5.44,PG,1612665251
aguimes,27.9054,-15.4461,60.01,77,40,8.05,ES,1612665254
bull savanna,17.8868,-77.5902,73.53,88,11,12.59,JM,1612665258
spencer,43.1414,-95.1444,-5.8,71,1,6.91,US,1612665261
polewali,-3.4324,119.3435,87.04,61,58,3.56,ID,1612665264
metro,-5.1131,105.3067,82.11,77,93,14.94,ID,1612665267
rongcheng,30.634,117.8517,61.68,57,33,4.0,CN,1612665271
bell ville,-32.6259,-62.6887,70.34,39,0,7.38,AR,1612665274
malakal,9.5334,31.6605,63.1,29,0,8.19,SS,1612665278
meadow lake,34.8014,-106.5436,46.4,13,1,5.75,US,1612665281
kotelnikovo,47.6317,43.1461,24.1,86,15,12.59,RU,1612665284
