City,Lat,Lng,Max Temp,Humidity,Cloudiness,Wind Speed,Country,Date
busselton,-33.65,115.3333,59.0,98,100,1.99,AU,1612655284
dembi dolo,8.5333,34.8,59.56,33,46,4.03,ET,1612655659
tuktoyaktuk,69.4541,-133.0374,-16.6,76,90,24.16,CA,1612655283
hirado,33.3597,129.5531,53.01,93,40,3.44,JP,1612655666
codrington,-38.2667,141.9667,59.0,68,100,11.81,AU,1612655201
chokurdakh,70.6333,147.9167,-22.81,86,38,3.33,RU,1612655306
hermanus,-34.4187,19.2345,68.0,89,80,1.99,ZA,1612655285
smithers,54.7804,-127.1743,26.6,93,90,3.44,CA,1612655546
wadi maliz,36.4681,8.5495,55.4,76,40,3.44,TN,1612655682
dikson,73.5069,80.5464,-28.14,86,90,9.48,RU,1612655230
muisne,0.6,-80.0333,79.03,84,47,4.92,EC,1612655688
port alfred,-33.5906,26.891,68.0,89,43,3.0,ZA,1612655304
porto novo,6.4965,2.6036,84.2,84,40,16.11,BJ,1612655354
albany,42.6001,-73.9662,28.4,43,1,9.22,US,1612655192
diapaga,12.0708,1.7889,77.54,18,9,7.92,BF,1612655702
norman wells,65.282,-126.8329,-27.4,68,75,3.44,CA,1612655317
saint-philippe,-21.3585,55.7679,78.8,78,40,5.75,RE,1612655283
mataura,-46.1927,168.8643,77.25,50,0,2.44,NZ,1612655229
kavaratti,10.5669,72.642,81.16,62,12,10.6,IN,1612655286
bredasdorp,-34.5322,20.0403,69.8,68,63,5.75,ZA,1612655282
punta arenas,-53.15,-70.9167,55.4,58,40,23.02,CL,1612655175
mhlambanyatsi,-26.45,31.0167,60.93,99,100,2.75,SZ,1612655724
ayan,56.45,138.1667,-3.23,90,100,14.85,RU,1612655727
sarahan,31.5167,77.8,33.96,56,0,13.94,IN,1612655570
aklavik,68.2191,-135.0107,-7.6,71,90,10.36,CA,1612655734
sao joao da barra,-21.6403,-41.0511,71.13,96,100,15.66,BR,1612655340
henties bay,-22.116,14.2845,64.0,89,33,1.99,NA,1612655323
shellbrook,53.2168,-106.4011,-14.8,58,1,5.75,CA,1612655744
rikitea,-23.1203,-134.9692,78.67,69,100,9.84,PF,1612655280
khatanga,71.9667,102.5,-35.75,78,0,8.12,RU,1612655299
byron bay,-28.65,153.6167,82.4,65,40,1.14,AU,1612655754
isangel,-19.55,169.2667,86.0,74,20,5.75,VU,1612655757
cherskiy,68.75,161.3,-5.51,80,0,4.85,RU,1612655297
tuatapere,-46.1333,167.6833,71.08,47,0,3.24,NZ,1612655269
souillac,-20.5167,57.5167,77.0,83,20,3.44,MU,1612655295
georgetown,5.4112,100.3354,78.8,83,20,1.14,MY,1612655136
chiochis,46.9833,24.1833,45.0,100,90,2.06,RO,1612655773
kuytun,54.3419,101.5036,8.26,92,99,5.08,RU,1612655776
vardo,70.3705,31.1107,27.12,95,100,28.23,NO,1612655321
necochea,-38.5473,-58.7368,63.0,74,0,15.79,AR,1612655305
angoche,-16.2325,39.9086,78.26,86,100,3.76,MZ,1612655786
adre,13.4667,22.2,57.09,33,30,12.44,TD,1612655350
bethel,41.3712,-73.414,41.0,38,1,5.75,US,1612655025
andenes,69.3143,16.1194,32.0,80,100,20.71,NO,1612655514
mount isa,-20.7333,139.5,75.2,100,90,8.05,AU,1612655340
parsabad,39.6482,47.9174,39.2,100,90,4.61,IR,1612655802
lompoc,34.6391,-120.4579,64.0,63,1,14.97,US,1612655289
fare,-16.7,-151.0167,82.42,67,11,10.27,PF,1612655809
shagamu,6.8432,3.6478,79.92,84,98,3.85,NG,1612655812
new norfolk,-42.7826,147.0587,64.99,56,63,4.0,AU,1612655295
ushuaia,-54.8,-68.3,51.8,76,40,21.85,AR,1612655229
barrow,71.2906,-156.7887,-5.8,77,20,12.66,US,1612655280
carnarvon,-24.8667,113.6333,80.6,100,31,11.5,AU,1612655289
lorengau,-2.0226,147.2712,85.32,68,98,5.12,PG,1612655289
jamestown,42.097,-79.2353,17.6,53,1,6.91,US,1612655216
pacific grove,36.6177,-121.9166,60.8,63,1,3.44,US,1612655659
cidreira,-30.1811,-50.2056,69.87,74,63,4.59,BR,1612655281
hambantota,6.1241,81.1185,76.41,83,96,14.58,LK,1612655337
paamiut,61.994,-49.6678,22.87,80,0,6.26,GL,1612655283
te anau,-45.4167,167.7167,73.13,43,4,3.36,NZ,1612655775
siniscola,40.5719,9.6922,61.41,50,93,3.11,IT,1612655851
castro,-24.7911,-50.0119,60.71,91,0,9.42,BR,1612655128
juneau,58.3019,-134.4197,23.0,50,20,11.5,US,1612655641
camacha,33.0833,-16.3333,59.0,63,75,10.36,PT,1612655321
pisco,-13.7,-76.2167,73.4,78,75,4.61,PE,1612655255
saint anthony,45.0205,-93.218,-2.2,54,1,17.27,US,1612655329
aykhal,66.0,111.5,-32.26,81,4,8.39,RU,1612655878
hearst,49.6835,-83.6665,-5.8,77,100,6.91,CA,1612655881
tasiilaq,65.6145,-37.6368,33.8,60,75,34.52,GL,1612655040
namibe,-15.1961,12.1522,70.84,78,20,6.55,AO,1612655782
port-cartier,50.0334,-66.8654,30.2,93,100,10.36,CA,1612655756
bequimao,-2.4489,-44.7825,80.6,89,0,11.5,BR,1612655894
ixtapa,20.7,-105.2,75.2,69,75,10.36,MX,1612655318
ilulissat,69.2167,-51.1,23.0,46,7,29.93,GL,1612655301
cape town,-33.9258,18.4232,71.01,78,20,10.36,ZA,1612655836
bogorodskoye,56.55,37.8833,-2.43,92,100,10.87,RU,1612655910
lieksa,63.3167,30.0167,10.96,95,95,8.79,FI,1612655913
mezen,65.8522,44.24,-14.57,87,85,7.72,RU,1612655916
sechura,-5.5569,-80.8222,78.55,62,14,17.54,PE,1612655920
hobart,-42.8794,147.3294,66.0,59,75,13.8,AU,1612655841
lagos,6.5833,3.75,80.31,86,35,5.75,NG,1612655521
mastic beach,40.7668,-72.8521,39.99,48,1,10.36,US,1612655930
atuona,-9.8,-139.0333,80.28,76,83,19.39,PF,1612655742
qaanaaq,77.484,-69.3632,9.88,86,98,7.63,GL,1612655936
klaksvik,62.2266,-6.589,35.6,60,20,19.57,FO,1612655545
bengkulu,-3.8004,102.2655,76.84,74,100,4.21,ID,1612655943
ribeira grande,38.5167,-28.7,61.05,87,98,22.12,PT,1612655946
talnakh,69.4865,88.3972,-29.15,73,0,2.24,RU,1612655949
hovd,48.0056,91.6419,6.57,90,0,1.21,MN,1612655952
kapuskasing,49.4169,-82.4331,-2.2,71,100,10.36,CA,1612655956
la ronge,55.1001,-105.2842,-20.2,57,86,5.75,CA,1612655959
linkoping,58.4109,15.6216,12.2,92,90,2.3,SE,1612655962
saint andrews,34.0454,-81.1293,44.6,61,90,6.91,US,1612655965
bluff,-46.6,168.3333,61.34,68,2,6.4,NZ,1612655969
leningradskiy,69.3833,178.4167,-9.99,74,0,6.04,RU,1612655972
belaya gora,68.5333,146.4167,-33.3,83,25,1.05,RU,1612655975
sarana,56.4773,57.7259,3.58,91,100,15.66,RU,1612655978
bell ville,-32.6259,-62.6887,76.23,29,0,5.26,AR,1612655982
kapaa,22.0752,-159.319,75.99,49,75,9.22,US,1612655985
beeville,28.4008,-97.7483,73.4,43,1,3.44,US,1612655989
wilmington,34.2257,-77.9447,48.99,57,90,8.05,US,1612655992
yellowknife,62.456,-114.3525,-36.4,67,1,2.3,CA,1612655702
yar-sale,66.8333,70.8333,-28.19,86,100,15.01,RU,1612655998
maniitsoq,65.4167,-52.9,28.38,80,0,21.61,GL,1612656002
lebu,-37.6167,-73.65,59.18,91,64,2.17,CL,1612655860
imeni zhelyabova,58.9544,36.5956,1.06,92,100,9.57,RU,1612656012
bonavista,48.6499,-53.1147,36.0,100,100,1.14,CA,1612655754
brae,60.3964,-1.353,33.8,60,90,16.11,GB,1612655756
kavieng,-2.5744,150.7967,84.58,67,79,3.24,PG,1612656024
kisangani,0.5167,25.2,70.97,60,64,1.45,CD,1612656028
ugoofaaru,5.6667,73.0,81.34,75,6,9.62,MV,1612656032
murupara,-38.4667,176.7,81.0,28,100,3.0,NZ,1612656035
torbay,47.6666,-52.7314,45.0,100,90,24.16,CA,1612656038
maragogi,-9.0122,-35.2225,78.03,83,61,9.17,BR,1612656042
nikolskoye,59.7035,30.7861,8.6,78,20,15.66,RU,1612656045
iwanai,42.9744,140.5089,27.41,93,100,7.58,JP,1612656049
evensk,61.95,159.2333,17.76,87,97,23.33,RU,1612656052
vaini,-21.2,-175.2,84.2,84,75,11.5,TO,1612656056
san patricio,28.017,-97.5169,73.4,46,1,11.5,US,1612655515
pochutla,15.7432,-96.4661,81.0,74,75,11.5,MX,1612655535
port hardy,50.6996,-127.4199,44.6,81,75,12.66,CA,1612656066
high level,58.5169,-117.136,-14.8,58,1,2.3,CA,1612656069
kamaishi,39.2667,141.8833,33.8,100,75,2.3,JP,1612656073
chenzhou,25.8,113.0333,59.5,72,0,1.52,CN,1612656076
bluefield,37.2698,-81.2223,35.6,51,1,4.43,US,1612656079
butaritari,3.0707,172.7902,81.21,80,92,20.56,KI,1612655848
east london,-33.0153,27.9116,74.75,91,10,10.83,ZA,1612655968
mbaiki,3.8678,17.9892,70.66,48,12,0.94,CF,1612656089
kruisfontein,-34.0033,24.7314,64.0,89,22,1.01,ZA,1612656093
provideniya,64.3833,-173.3,2.03,89,35,5.1,RU,1612656096
muroto,33.2833,134.15,42.8,75,75,8.05,JP,1612656100
hilo,19.7297,-155.09,80.6,41,1,9.22,US,1612656103
kodiak,57.79,-152.4072,39.2,56,20,4.61,US,1612656106
luderitz,-26.6481,15.1594,69.71,60,0,21.65,NA,1612656110
progreso,21.2833,-89.6667,84.2,61,20,6.91,MX,1612656113
avera,33.194,-82.5271,41.0,90,90,11.5,US,1612656116
mathbaria,22.2876,89.9593,59.56,65,0,8.43,BD,1612656120
thompson,55.7435,-97.8558,-25.6,62,75,13.8,CA,1612656123
san angelo,31.4638,-100.437,64.4,13,1,12.66,US,1612656126
puerto ayora,-0.7393,-90.3518,78.01,91,71,3.0,EC,1612656130
yenagoa,4.9247,6.2642,79.36,87,0,4.43,NG,1612656133
ahuimanu,21.4447,-157.8378,78.8,47,20,8.05,US,1612656136
hami,42.8,93.45,30.2,78,22,5.28,CN,1612656140
road town,18.4167,-64.6167,77.0,88,75,12.66,VG,1612656008
airai,-8.9266,125.4092,68.04,87,94,3.42,TL,1612656146
ovsyanka,55.9575,92.5519,28.4,74,40,6.71,RU,1612656149
diffa,13.3154,12.6113,65.12,36,64,10.74,NE,1612656153
visby,57.6409,18.296,21.2,79,20,5.75,SE,1612656156
saskylakh,71.9167,114.0833,-39.57,78,83,7.36,RU,1612656159
grindavik,63.8424,-22.4338,33.8,64,0,23.02,IS,1612656163
walvis bay,-22.9575,14.5053,64.0,94,3,6.91,NA,1612655509
severo-kurilsk,50.6789,156.125,22.59,93,99,15.46,RU,1612656169
avarua,-21.2078,-159.775,86.0,70,69,12.66,CK,1612656172
invermere,50.5167,-116.0354,23.0,89,99,1.01,CA,1612656176
tayoltita,24.0833,-105.9333,71.76,33,4,5.37,MX,1612656179
waterbury,41.5582,-73.0515,39.2,32,1,6.91,US,1612656032
vostok,46.4856,135.8833,-8.5,90,100,2.44,RU,1612656185
igrim,63.1906,64.4162,-18.56,88,100,14.97,RU,1612656189
monteagudo,-19.8167,-63.9833,82.4,44,20,2.33,BO,1612656192
kousseri,12.0769,15.0306,71.6,18,44,11.5,CM,1612656196
arraial do cabo,-22.9661,-42.0278,75.58,83,100,5.23,BR,1612656199
usinsk,65.9939,57.5281,-32.96,81,99,14.2,RU,1612656202
aksu,41.1231,80.2644,27.39,79,51,3.91,CN,1612656205
maralal,1.0968,36.698,57.83,81,1,3.06,KE,1612656209
fortuna,40.5982,-124.1573,52.0,93,1,14.97,US,1612656212
bonthe,7.5264,-12.505,79.48,79,93,6.89,SL,1612656215
cabo san lucas,22.8909,-109.9124,75.0,53,20,8.05,MX,1612656182
aksarka,66.5606,67.7975,-33.83,82,98,20.56,RU,1612656222
dedza,-14.3779,34.3332,60.33,100,100,2.24,MW,1612656225
victoria,22.2855,114.1577,66.99,68,0,7.47,HK,1612656003
westport,41.1415,-73.3579,41.0,38,1,11.5,US,1612656084
lavrentiya,65.5833,-171.0,-8.01,79,0,1.34,RU,1612656235
longyearbyen,78.2186,15.6401,19.4,79,75,11.5,SJ,1612656138
ouesso,1.6136,16.0517,75.7,73,44,2.82,CG,1612655786
manokwari,-0.8667,134.0833,78.8,84,100,2.1,ID,1612656245
dingle,10.9995,122.6711,78.8,85,81,11.59,PH,1612656239
usogorsk,63.4106,48.6872,-19.88,84,99,10.18,RU,1612656252
santa rosa,14.3122,121.1114,82.0,78,40,9.71,PH,1612656240
komsomolskiy,40.4272,71.7189,42.8,52,100,4.61,UZ,1612656255
san pedro,14.35,121.0167,82.0,78,40,9.46,PH,1612656261
bukachacha,52.9833,116.9167,-14.12,82,82,2.35,RU,1612655782
kontagora,10.3999,5.4695,75.43,20,100,4.41,NG,1612656268
tshikapa,-6.4167,20.8,69.67,94,100,1.03,CD,1612656271
christchurch,-43.5333,172.6333,68.0,60,75,20.71,NZ,1612655512
slyudyanka,51.6594,103.7061,10.51,82,67,6.24,RU,1612656278
upernavik,72.7868,-56.1549,18.88,76,90,3.6,GL,1612656263
chumikan,54.7183,135.315,-9.94,84,100,14.74,RU,1612656285
kungalv,57.871,11.9805,18.0,85,0,8.05,SE,1612656288
ban nahin,18.2418,104.2122,61.16,80,0,3.15,LA,1612656291
williston,48.147,-103.618,-6.0,62,42,7.14,US,1612656241
neryungri,56.6709,124.6491,-21.57,85,100,1.97,RU,1612656298
diamantino,-14.4086,-56.4461,76.68,76,53,1.86,BR,1612656301
solnechnyy,50.7214,136.6319,-1.17,89,100,3.91,RU,1612656305
kaitangata,-46.2817,169.8464,64.99,73,4,5.99,NZ,1612656242
sangar,63.9242,127.4739,-38.92,78,60,6.11,RU,1612655777
homer,59.6425,-151.5483,28.4,86,1,8.05,US,1612655777
ihosy,-22.4,46.1167,70.5,84,89,1.41,MG,1612656317
san antonio,29.4241,-98.4936,71.6,17,1,16.11,US,1612656066
yaguajay,22.3272,-79.2378,77.65,75,30,9.42,CU,1612656324
aanekoski,62.6946,25.818,14.0,92,90,4.61,FI,1612656327
abu samrah,35.3029,37.1841,49.66,72,0,4.7,SY,1612655776
ostrovnoy,68.0531,39.5131,8.42,91,100,9.86,RU,1612656334
goroka,-6.0834,145.3873,72.07,70,99,1.36,PG,1612656326
mitchell,43.7094,-98.0298,1.4,55,1,9.22,US,1612656340
clyde river,70.4692,-68.5914,-11.2,84,20,2.3,CA,1612656132
ilhabela,-23.7781,-45.3581,72.5,76,58,3.02,BR,1612656091
shache,38.4167,77.2406,27.01,82,78,0.94,CN,1612656350
palmer,42.1584,-72.3287,35.6,35,20,8.05,US,1612656354
karoi,-16.8099,29.6925,64.58,98,100,4.14,ZW,1612656357
aripuana,-9.1667,-60.6333,72.63,99,100,2.39,BR,1612656299
pevek,69.7008,170.3133,-6.47,87,49,5.55,RU,1612656272
skibotn,69.3913,20.2679,26.6,80,75,5.75,NO,1612656367
amapa,1.0,-52.0,72.01,98,100,2.37,BR,1612656370
port-gentil,-0.7193,8.7815,80.6,89,40,6.91,GA,1612656264
cuicatlan,17.8,-96.9667,85.91,30,0,3.11,MX,1612656378
contai,21.7786,87.7536,57.79,79,5,9.8,IN,1612656381
cabedelo,-6.9811,-34.8339,78.8,83,20,4.61,BR,1612656385
half moon bay,37.4636,-122.4286,62.6,76,1,17.27,US,1612656388
ancud,-41.8697,-73.8203,66.2,52,0,6.91,CL,1612656289
rio gallegos,-51.6226,-69.2181,59.0,41,0,4.61,AR,1612656394
karratha,-20.7377,116.8463,80.42,58,13,8.93,AU,1612656300
mar del plata,-38.0023,-57.5575,64.0,77,20,12.66,AR,1612656123
itoman,26.1247,127.6694,68.0,77,40,11.5,JP,1612656404
fairbanks,64.8378,-147.7164,-5.01,77,90,0.76,US,1612656111
tromso,69.6496,18.957,26.6,80,75,5.75,NO,1612656412
saldanha,-33.0117,17.9442,64.4,82,13,3.44,ZA,1612656282
faya,18.3851,42.4509,46.4,81,20,2.77,SA,1612656278
madimba,-10.4,40.3333,78.8,89,40,9.22,TZ,1612656421
nuuk,64.1835,-51.7216,32.0,43,0,20.71,GL,1612656424
siva,29.2041,25.5195,52.65,63,13,2.19,EG,1612656428
katangli,51.7102,143.2326,-0.74,91,100,10.45,RU,1612656431
jinchang,38.4953,102.1739,26.4,69,0,2.68,CN,1612656434
portland,45.5234,-122.6762,46.99,87,90,18.41,US,1612655999
sorland,67.667,12.6934,35.22,80,50,21.36,NO,1612656243
hamilton,39.1834,-84.5333,32.0,51,1,3.44,US,1612656296
mehamn,71.0357,27.8492,25.77,93,100,20.8,NO,1612656253
zhengjiatun,43.5064,123.5064,0.21,90,34,8.97,CN,1612656450
mount gambier,-37.8333,140.7667,59.0,77,90,8.05,AU,1612656453
banda aceh,5.5577,95.3222,78.71,78,61,7.78,ID,1612656457
sao joao del rei,-21.1356,-44.2617,62.6,94,75,3.44,BR,1612656460
talara,-4.5772,-81.2719,80.6,65,0,9.22,PE,1612656463
topeka,39.0483,-95.678,14.0,73,40,9.22,US,1612656204
riyadh,24.6877,46.7219,55.4,71,0,5.75,SA,1612656452
cordoba,-31.4135,-64.1811,80.01,77,0,5.75,AR,1612656387
la romana,18.4273,-68.9728,80.6,83,20,6.91,DO,1612656476
mogadouro,41.3403,-6.7119,39.7,95,100,1.77,PT,1612656479
tiksi,71.6872,128.8694,-25.71,84,100,4.56,RU,1612656255
awjilah,29.1081,21.2869,59.43,39,0,9.37,LY,1612656486
esperance,-33.8667,121.9,59.0,100,90,13.8,AU,1612656172
hasaki,35.7333,140.8333,45.0,61,20,6.91,JP,1612656247
sulangan,11.1373,123.7228,80.46,81,31,13.73,PH,1612656495
boden,65.8252,21.6886,12.2,92,40,11.5,SE,1612656499
touros,-5.1989,-35.4608,78.8,78,40,4.61,BR,1612656283
lazaro cardenas,17.9583,-102.2,79.16,64,0,5.19,MX,1612656505
coihaique,-45.5752,-72.0662,71.6,35,0,18.41,CL,1612656370
saint-augustin,51.226,-58.6502,34.16,95,100,17.94,CA,1612656489
salihli,38.4826,28.1477,55.15,54,0,2.39,TR,1612656515
miles city,46.4083,-105.8406,3.2,66,90,13.8,US,1612656518
carballo,43.213,-8.691,39.99,94,77,1.7,ES,1612656521
gerash,27.6652,54.1371,50.81,77,0,4.18,IR,1612656525
port elizabeth,-33.918,25.5701,68.0,77,0,12.66,ZA,1612656458
garowe,8.4054,48.4845,69.82,79,34,13.62,SO,1612656531
bilma,18.6853,12.9164,60.3,28,71,5.26,NE,1612656534
abu dhabi,24.4667,54.3667,66.2,52,0,6.91,AE,1612656239
petauke,-14.2426,31.3253,65.86,97,100,4.99,ZM,1612656541
grand gaube,-20.0064,57.6608,75.99,85,9,1.99,MU,1612656545
barguzin,53.6167,109.6167,-1.68,87,100,2.48,RU,1612656548
vao,-22.6667,167.4833,77.58,81,0,4.52,NC,1612656501
mahebourg,-20.4081,57.7,77.0,83,20,3.44,MU,1612656223
santa isabel do rio negro,-0.4139,-65.0192,76.62,91,50,1.97,BR,1612656558
sukabumi,-6.9181,106.9267,80.01,97,96,5.3,ID,1612656561
tavda,58.0425,65.2726,32.25,98,100,7.9,RU,1612656564
ketchikan,55.3422,-131.6461,37.4,87,40,10.36,US,1612656142
mogadishu,2.0371,45.3438,75.67,83,3,17.09,SO,1612656455
fort saint james,54.4333,-124.25,7.29,91,100,3.8,CA,1612656574
rajpur,22.3,74.35,57.58,37,0,8.25,IN,1612656577
flinders,-34.5833,150.8552,79.0,67,3,1.99,AU,1612656493
faanui,-16.4833,-151.75,82.47,66,2,9.19,PF,1612656258
soyo,-6.1349,12.3689,79.72,85,98,6.87,AO,1612656335
lagoa,39.05,-27.9833,60.04,90,100,25.48,PT,1612656283
makakilo city,21.3469,-158.0858,78.8,44,1,13.8,US,1612656377
la roda,39.2167,-2.15,46.4,81,75,5.75,ES,1612656597
vanimo,-2.6741,141.3028,81.09,82,98,5.12,PG,1612656250
nemuro,43.3236,145.575,23.0,86,75,9.22,JP,1612656321
wuwei,37.9281,102.6414,26.13,70,21,4.03,CN,1612656607
syracuse,37.0881,15.2792,57.2,100,100,9.22,IT,1612656106
plettenberg bay,-34.0527,23.3716,67.62,75,18,6.82,ZA,1612656484
okha,53.5739,142.9478,0.81,93,100,7.18,RU,1612656251
heihe,50.2441,127.4902,-20.2,76,0,6.06,CN,1612656620
najran,17.4924,44.1277,60.8,48,0,3.71,SA,1612656292
saint-pierre,-21.3393,55.4781,78.8,78,40,5.75,RE,1612656283
edd,13.9297,41.6925,72.46,74,16,8.01,ER,1612656630
zyryanka,65.75,150.85,-18.11,84,44,8.68,RU,1612656379
paramonga,-10.6667,-77.8333,70.88,79,70,7.38,PE,1612656636
ulladulla,-35.35,150.4667,77.0,60,29,5.75,AU,1612656303
londoko,49.0333,131.9833,-9.4,86,100,2.51,RU,1612656643
imbituba,-28.24,-48.6703,73.4,73,0,5.75,BR,1612656646
charters towers,-20.1,146.2667,83.75,63,100,5.5,AU,1612656369
ojinaga,29.5667,-104.4167,69.8,8,1,8.05,MX,1612656618
belmonte,-15.8631,-38.8828,78.8,78,20,11.5,BR,1612656242
chuy,-33.6971,-53.4616,67.64,80,0,10.04,UY,1612656259
along,28.1667,94.7667,49.03,52,29,1.68,IN,1612656229
malanje,-9.5402,16.341,65.12,99,100,4.81,AO,1612656667
guanare,9.0418,-69.7421,81.09,58,100,2.57,VE,1612656671
senanga,-16.1167,23.2667,69.62,85,98,4.18,ZM,1612656362
roma,43.2128,-75.4557,23.0,50,1,4.61,US,1612656211
korocha,50.8107,37.1953,6.8,78,40,13.42,RU,1612656681
nantucket,41.2835,-70.0995,39.0,81,1,19.57,US,1612656331
pierre,44.3683,-100.351,3.2,47,1,3.44,US,1612656611
tuy hoa,13.0833,109.3,70.52,89,92,5.28,VN,1612656690
dunedin,-45.8742,170.5036,60.01,78,1,23.0,NZ,1612656356
shakhtinsk,49.71,72.5872,32.0,86,90,31.32,KZ,1612656697
ereymentau,51.6199,73.1033,26.82,94,99,33.93,KZ,1612656701
boende,-0.2167,20.8667,74.53,79,50,1.61,CD,1612656653
ponta do sol,32.6667,-17.1,54.0,83,11,5.01,PT,1612656444
sao filipe,14.8961,-24.4956,69.66,74,38,14.81,CV,1612656473
cao bang,22.6667,106.25,58.84,82,0,2.08,VN,1612656714
kismayo,-0.3582,42.5454,75.94,86,26,13.06,SO,1612656305
vigrestad,58.5667,5.7,14.0,78,0,3.44,NO,1612656269
mingoyo,-10.1,39.6333,78.8,89,40,9.22,TZ,1612656724
mangrol,21.1167,70.1167,65.01,34,0,12.03,IN,1612656728
yumen,40.2833,97.2,26.58,67,98,1.9,CN,1612656399
vila,42.0304,-8.1588,37.99,87,72,3.74,PT,1612656735
filotion,37.05,25.5,59.0,100,0,11.5,GR,1612656738
coquimbo,-29.9533,-71.3436,60.8,82,0,10.36,CL,1612656277
colares,38.7992,-9.4469,53.01,76,24,20.0,PT,1612656744
kayerkan,69.3497,87.7602,-29.2,75,0,4.36,RU,1612656332
akonolinga,3.7667,12.25,68.45,92,6,3.27,CM,1612656750
harbour breton,47.4833,-55.7983,38.75,87,100,19.08,CA,1612656754
miri,4.4148,114.0089,77.0,100,40,3.94,MY,1612656676
ratnagiri,16.9833,73.3,73.65,36,0,5.97,IN,1612656760
boone,39.0334,-92.3335,19.0,77,100,4.0,US,1612656516
cuamba,-14.8031,36.5372,69.98,96,100,1.7,MZ,1612656767
nabire,-3.3667,135.4833,81.5,70,99,1.36,ID,1612656374
rocha,-34.4833,-54.3333,64.22,93,0,5.59,UY,1612656270
bergama,39.1207,27.1805,59.0,100,0,4.61,TR,1612656776
sitka,57.0531,-135.33,35.6,60,40,11.5,US,1612656251
severnyy,50.677,36.5532,6.8,78,40,13.42,RU,1612656783
tevaitoa,-16.7833,-151.5,82.53,64,8,9.95,PF,1612656786
kampong cham,11.9934,105.4635,74.98,77,71,2.51,KH,1612656694
samarai,-10.6167,150.6667,85.41,70,64,7.36,PG,1612656440
tual,-5.6667,132.75,83.89,78,100,20.0,ID,1612656467
noumea,-22.2763,166.4572,86.0,66,75,8.05,NC,1612656206
korla,41.7597,86.1469,25.16,86,0,2.06,CN,1612656307
shahr-e babak,30.1165,55.1186,44.31,52,44,9.4,IR,1612656806
ransang,8.9603,117.5828,79.45,73,100,2.71,PH,1612656809
tabuk,17.4189,121.4443,73.62,84,43,0.54,PH,1612656812
naco,31.3347,-109.9483,66.0,18,0,1.01,MX,1612656815
forrest city,35.0081,-90.7898,50.0,43,90,4.61,US,1612656818
ginda,30.6945,78.4932,39.96,52,0,6.69,IN,1612656822
botad,22.1667,71.6667,58.24,35,0,10.11,IN,1612656825
sao jose da coroa grande,-8.8978,-35.1478,78.39,82,52,9.55,BR,1612656799
turukhansk,65.8167,87.9833,-3.12,91,100,13.47,RU,1612656808
srednekolymsk,67.45,153.6833,-15.47,84,13,0.49,RU,1612656482
matara,5.9485,80.5353,73.74,89,97,5.23,LK,1612656262
namatanai,-3.6667,152.4333,85.37,63,75,3.94,PG,1612656481
salalah,17.0151,54.0924,73.4,68,75,5.75,OM,1612656235
oranjestad,12.524,-70.027,78.8,73,20,21.85,AW,1612656847
le pradet,43.1066,6.0172,59.0,77,75,9.22,FR,1612656851
saint george,37.1041,-113.5841,60.8,14,1,10.36,US,1612656455
santa maria,-29.6842,-53.8069,71.6,78,0,1.14,BR,1612656486
moose factory,51.2585,-80.6094,-2.2,71,90,10.36,CA,1612656598
sioux lookout,50.1001,-91.917,-13.0,70,90,13.8,CA,1612656614
skovorodino,53.9833,123.9167,-17.61,83,58,2.21,RU,1612656867
xinzhi,36.4989,111.7047,41.54,54,52,6.67,CN,1612656871
iralaya,15.0,-83.2333,78.82,82,57,12.71,HN,1612656874
ust-nera,64.5667,143.2,-24.48,75,54,4.99,RU,1612656475
ust-maya,60.4167,134.5333,-25.78,84,100,0.85,RU,1612656649
novikovo,51.1537,37.8879,3.38,90,93,10.54,RU,1612656884
uspenka,48.3903,39.1619,21.87,86,74,13.22,UA,1612656888
hiriyur,13.9456,76.6192,61.09,65,71,2.01,IN,1612656891
kita,13.0349,-9.4895,77.92,17,93,5.32,ML,1612656895
honiara,-9.4333,159.95,78.55,86,100,6.64,SB,1612656491
hithadhoo,-0.6,73.0833,81.75,74,22,13.33,MV,1612656895
ulaangom,49.9811,92.0667,-8.45,89,45,2.15,MN,1612656905
alice springs,-23.7,133.8833,82.99,29,61,16.11,AU,1612656509
basco,20.4487,121.9702,74.17,87,100,22.37,PH,1612656335
bucerias,20.75,-105.3333,73.99,78,20,8.05,MX,1612656917
sarkand,45.41,79.9186,40.5,69,100,10.29,KZ,1612656500
terre haute,39.4667,-87.4139,27.0,54,1,9.22,US,1612656923
matagami,49.7502,-77.6328,8.6,78,90,11.5,CA,1612656780
kargasok,59.0556,80.8572,33.24,95,100,13.4,RU,1612656837
machali,-34.1833,-70.6667,69.04,56,0,4.03,CL,1612656933
astoria,46.1879,-123.8313,46.4,93,90,12.66,US,1612656937
markova,48.6758,24.4138,24.19,97,100,6.24,UA,1612656941
havoysund,70.9963,24.6622,27.43,94,100,22.26,NO,1612656376
aquidauana,-20.4711,-55.7872,72.39,73,9,2.55,BR,1612656948
velikiy ustyug,60.7644,46.3106,-8.36,87,100,10.36,RU,1612656951
tautira,-17.7333,-149.15,86.0,54,20,12.66,PF,1612656787
lata,40.1629,-8.3327,51.01,75,27,5.01,PT,1612656806
qasigiannguit,68.8193,-51.1922,26.6,33,2,26.46,GL,1612656961
nanortalik,60.1432,-45.2371,23.5,83,24,9.86,GL,1612656904
njombe,-9.3333,34.7667,58.82,92,100,2.48,TZ,1612656968
luganville,-15.5333,167.1667,85.57,64,4,6.58,VU,1612656971
laje,-10.1833,-40.9667,77.07,43,58,2.62,BR,1612656975
palmas bellas,9.2319,-80.0867,81.0,76,100,7.25,PA,1612656978
arman,59.7,150.1667,8.51,87,100,13.67,RU,1612656664
hofn,64.2539,-15.2082,32.86,91,98,18.59,IS,1612656924
dali,25.7,100.1833,41.18,71,7,2.35,CN,1612656988
elizabethtown,37.694,-85.8591,35.6,69,40,6.08,US,1612656967
ulu-telyak,54.9086,56.9669,-1.08,91,100,12.53,RU,1612656995
kintampo,8.0563,-1.7306,79.99,50,68,5.5,GH,1612656998
artyom,40.4723,50.333,48.2,81,0,20.71,AZ,1612656513
bambous virieux,-20.3428,57.7575,77.0,83,20,3.44,MU,1612656199
marinette,45.1,-87.6307,3.2,85,1,6.91,US,1612657009
bocas del toro,9.3333,-82.25,68.0,72,87,5.48,PA,1612657012
volovo,48.5246,23.5056,37.99,92,100,5.14,UA,1612657016
sao paulo de olivenca,-3.3783,-68.8725,75.54,94,72,0.67,BR,1612657019
brownwood,31.7093,-98.9912,59.0,29,1,11.5,US,1612657022
akcakoca,41.0866,31.1162,53.22,59,1,3.09,TR,1612657026
pareora,-44.4871,171.2132,66.99,82,33,4.0,NZ,1612657030
guatire,10.4762,-66.5427,82.4,74,20,2.89,VE,1612656971
pljevlja,43.3333,19.3333,46.4,57,0,10.36,ME,1612657037
nizwa,22.9333,57.5333,50.5,63,0,2.08,OM,1612656498
kachiry,53.0675,76.1036,34.52,97,100,19.64,KZ,1612657043
durazno,-33.4131,-56.5006,72.0,50,0,3.02,UY,1612657048
beckley,37.7782,-81.1882,34.0,64,1,4.61,US,1612656958
kronach,50.2396,11.3331,34.0,85,100,8.99,DE,1612656783
ahipara,-35.1667,173.1667,72.21,58,95,3.67,NZ,1612656999
kemijarvi,66.7131,27.4306,15.22,95,48,9.86,FI,1612656595
sabang,5.8933,95.3214,82.69,73,58,15.37,ID,1612657064
jennings,38.7192,-90.2604,28.0,80,90,13.8,US,1612657067
konstantinovka,49.6167,127.9833,-18.58,87,73,4.7,RU,1612657070
colac,-38.3333,143.5833,60.01,1,41,5.01,AU,1612657074
tessalit,20.1986,1.0114,71.76,18,89,13.24,ML,1612657077
bafoulabe,13.8065,-10.8321,77.65,18,88,8.05,ML,1612656514
olafsvik,64.8945,-23.7142,34.21,82,61,15.26,IS,1612657085
cambuga,13.6167,122.45,77.54,84,36,8.32,PH,1612657088
bosaso,11.2842,49.1816,73.04,76,32,4.83,SO,1612656622
harper,4.375,-7.7169,79.39,88,6,8.7,LR,1612657095
les cayes,18.2,-73.75,76.26,83,75,7.94,HT,1612657098
sinnamary,5.3833,-52.95,77.65,87,100,13.82,GF,1612656870
puerto escondido,15.85,-97.0667,82.4,78,75,5.75,MX,1612657071
guerrero negro,27.9769,-114.0611,69.76,37,2,10.98,MX,1612657108
katima mulilo,-17.5,24.2667,68.05,86,100,4.63,NA,1612657111
pimentel,-6.8367,-79.9342,73.4,73,75,18.41,PE,1612657115
kyabe,9.4515,18.9449,70.43,22,0,7.25,TD,1612657118
santiago del estero,-27.7951,-64.2615,81.0,47,0,4.0,AR,1612657121
constitucion,-35.3333,-72.4167,58.95,86,23,4.27,CL,1612657030
tiznit,29.5833,-9.5,48.51,85,37,13.69,MA,1612656633
alofi,-19.0595,-169.9187,86.0,74,100,11.5,NU,1612657015
iqaluit,63.7506,-68.5145,26.6,74,90,13.8,CA,1612656815
caruray,10.3094,119.0128,84.2,70,40,13.8,PH,1612657138
bowen,-20.0167,148.2333,84.2,74,40,6.91,AU,1612656650
garden city,42.3256,-83.331,18.0,62,90,11.5,US,1612657144
taltal,-25.4,-70.4833,64.54,74,22,4.34,CL,1612656975
seoul,37.5683,126.9778,37.4,100,90,4.61,KR,1612656854
terra santa,-2.1042,-56.4869,77.31,87,35,3.13,BR,1612657155
presidente medici,-11.1753,-61.9014,73.51,94,85,2.24,BR,1612657158
atambua,-9.1061,124.8925,78.28,83,91,2.73,ID,1612657162
mareeba,-17.0,145.4333,88.0,70,75,4.61,AU,1612657002
port blair,11.6667,92.75,77.65,77,9,7.92,IN,1612656636
rawson,-43.3002,-65.1023,58.71,69,75,22.19,AR,1612657171
gaurnadi,22.9667,90.2333,59.54,70,0,7.25,BD,1612657175
innisfail,-17.5333,146.0333,86.27,72,100,0.83,AU,1612656681
soria,41.6667,-2.6667,36.0,79,96,5.01,ES,1612656605
port moresby,-9.4431,147.1797,82.4,78,40,11.5,PG,1612657184
novska,45.3406,16.9769,37.4,100,0,3.44,HR,1612657188
quatre cocos,-20.2078,57.7625,77.0,83,40,4.61,MU,1612657191
yerbogachen,61.2767,108.0108,-5.85,91,99,6.08,RU,1612656954
wanlaweyn,2.6185,44.8938,72.28,85,16,9.26,SO,1612657197
cartagena,10.3997,-75.5144,80.6,83,0,8.05,CO,1612657201
prince rupert,54.3161,-130.3201,41.0,75,90,5.75,CA,1612657204
ust-tsilma,65.441,52.1498,-32.21,81,84,9.46,RU,1612656612
biak,-0.9131,122.8766,78.85,74,100,2.42,ID,1612657210
adrar,20.5022,-10.0711,57.67,39,99,11.05,MR,1612657214
beloha,-25.1667,45.05,74.5,95,12,4.97,MG,1612656837
emerald,-23.5333,148.1667,93.2,49,81,8.05,AU,1612657221
taoudenni,22.6783,-3.9836,62.01,31,53,10.92,ML,1612657224
port lincoln,-34.7333,135.8667,62.33,67,88,11.16,AU,1612657227
sao miguel do araguaia,-13.275,-50.1628,73.31,95,100,8.9,BR,1612657231
takoradi,4.8845,-1.7554,79.48,89,52,8.81,GH,1612657234
kieta,-6.2167,155.6333,86.77,64,46,6.87,PG,1612656690
coos bay,43.3665,-124.2179,50.0,81,90,4.61,US,1612657080
santa fe,-31.6333,-60.7,81.0,51,0,5.79,AR,1612657152
koutsouras,35.0339,25.9469,57.0,90,5,10.11,GR,1612657247
saint-francois,46.4154,3.9054,48.2,100,90,6.91,FR,1612656947
lubango,-14.9172,13.4925,64.24,53,36,2.75,AO,1612657254
gamba,-2.65,10.0,78.82,86,100,4.5,GA,1612657011
nome,64.5011,-165.4064,17.6,79,90,4.61,US,1612657012
port keats,-14.25,129.55,83.97,75,100,7.38,AU,1612657263
smirnykh,49.75,142.8333,-2.49,87,36,3.94,RU,1612657267
new philadelphia,40.4898,-81.4457,23.0,54,1,3.15,US,1612657207
beira,-19.8436,34.8389,82.4,83,40,4.61,MZ,1612657273
jalu,29.0331,21.5482,59.11,40,0,8.77,LY,1612657276
suruc,36.9761,38.425,42.8,61,0,6.91,TR,1612657280
hirara,24.8,125.2833,69.8,78,20,1.14,JP,1612657283
oussouye,12.485,-16.5469,68.0,82,0,4.61,SN,1612657286
ola,59.5833,151.2833,12.49,88,99,13.53,RU,1612657289
mineiros,-17.5694,-52.5511,69.73,92,12,5.75,BR,1612657293
victoria falls,-17.9235,25.843,67.91,89,100,3.4,ZW,1612657296
maraa,-1.8333,-65.3667,75.72,95,78,1.88,BR,1612657301
bathsheba,13.2167,-59.5167,77.0,73,20,17.27,BB,1612656836
wattegama,6.7989,81.4808,71.73,94,83,6.08,LK,1612656987
inongo,-1.95,18.2667,74.89,86,79,3.36,CD,1612657311
meulaboh,4.1363,96.1285,76.57,85,78,4.94,ID,1612657315
kolosovka,56.4678,73.611,28.58,97,100,19.46,RU,1612657318
siderno,38.2779,16.302,57.2,100,100,3.44,IT,1612657321
isla mujeres,21.2311,-86.731,82.0,83,1,9.22,MX,1612657325
russell,32.3502,-85.1999,42.8,87,90,5.75,US,1612657328
koupela,12.1794,-0.3517,77.76,19,26,9.1,BF,1612657331
otane,-39.8833,176.6333,75.0,51,99,5.99,NZ,1612657335
manaus,-3.1019,-60.025,78.8,89,40,6.91,BR,1612656802
ayagoz,47.9714,80.4392,32.49,89,90,21.63,KZ,1612657341
sussex,41.1834,-74.6663,28.99,50,1,5.39,US,1612657344
lasa,46.6166,10.7002,39.99,100,90,11.5,IT,1612657348
kirakira,-10.4544,161.9205,79.5,86,100,8.37,SB,1612657148
haljala,59.4336,26.2614,11.32,93,55,7.29,EE,1612657354
mackay,-21.15,149.2,87.01,70,40,10.36,AU,1612657357
lucapa,-8.4192,20.7447,67.78,95,100,2.98,AO,1612656927
katsuura,35.1333,140.3,54.0,50,0,3.44,JP,1612656926
luza,60.6308,47.2512,-8.88,87,100,10.6,RU,1612657367
reconquista,-29.15,-59.65,72.97,45,0,6.2,AR,1612657215
geraldton,-28.7667,114.6,69.8,83,75,25.32,AU,1612656949
raahe,64.6833,24.4833,12.2,85,0,10.36,FI,1612657377
malartic,48.1335,-78.1328,12.2,73,75,10.36,CA,1612657293
svecha,58.2785,47.5164,-5.22,91,100,10.85,RU,1612657150
bandar-e lengeh,26.5579,54.8807,68.0,83,0,13.8,IR,1612657387
kissidougou,9.1848,-10.0999,74.93,22,97,2.1,GN,1612657391
umm kaddadah,13.6017,26.6876,58.14,36,0,13.04,SD,1612657394
uruguaiana,-29.7547,-57.0883,75.2,64,0,5.75,BR,1612657397
deputatskiy,69.3,139.9,-34.37,84,1,1.7,RU,1612657151
linjiang,41.8069,126.9078,11.01,86,3,1.23,CN,1612657404
kuala terengganu,5.3302,103.1408,75.2,94,40,4.09,MY,1612657407
jizan,17.3333,42.6667,71.6,78,0,1.43,SA,1612657411
misratah,32.3754,15.0925,67.64,34,73,12.33,LY,1612657414
san quintin,30.4833,-115.95,63.77,61,0,10.83,MX,1612657278
cockburn town,21.4612,-71.1419,77.0,78,40,17.27,TC,1612657420
corning,42.1428,-77.0547,17.6,49,1,4.12,US,1612657423
lakes entrance,-37.8811,147.981,71.01,63,35,5.99,AU,1612657427
kurdzhinovo,43.9884,40.9552,36.32,82,100,2.53,RU,1612657430
alta gracia,-31.6529,-64.4283,78.01,77,0,5.75,AR,1612657433
san jose,37.3394,-121.895,71.01,23,20,6.91,US,1612657285
kristiinankaupunki,62.2743,21.376,16.43,97,33,7.47,FI,1612657440
bom jardim,-7.7958,-35.5872,75.2,83,0,12.66,BR,1612657443
phibun mangsahan,15.2447,105.2291,73.0,94,21,3.44,TH,1612657446
krasnoslobodsk,48.7072,44.5714,21.0,86,75,17.9,RU,1612657449
havelock,34.8791,-76.9013,45.0,57,90,6.91,US,1612657298
port macquarie,-31.4333,152.9167,84.0,61,27,1.01,AU,1612657183
celestun,20.8667,-90.4,74.77,81,2,8.81,MX,1612657459
palembang,-2.9167,104.7458,75.2,100,75,4.61,ID,1612657462
belaya glina,46.07,40.86,28.94,90,100,5.23,RU,1612657465
srandakan,-7.9386,110.2506,77.97,83,63,5.28,ID,1612657469
botou,38.0667,116.5667,30.54,94,0,11.12,CN,1612657472
egvekinot,66.3167,-179.1667,-4.2,79,5,8.43,RU,1612657475
bima,-8.4667,118.7167,81.14,77,84,2.28,ID,1612657479
tonekabon,36.8163,50.8738,51.8,93,90,3.8,IR,1612657484
anadyr,64.75,177.4833,-9.0,77,0,6.71,RU,1612657487
manuk mangkaw,4.8,119.85,81.55,80,100,12.77,PH,1612657490
san rafael,-34.6177,-68.3301,83.39,27,0,10.69,AR,1612657493
baykit,61.67,96.37,17.71,94,100,5.79,RU,1612656901
huarmey,-10.0681,-78.1522,71.56,76,80,8.57,PE,1612657500
morondava,-20.2833,44.2833,79.9,82,87,7.58,MG,1612656984
cabatuan,10.8794,122.486,77.88,85,89,13.38,PH,1612657506
santa cruz,-17.8,-63.1667,84.2,51,20,2.3,BO,1612657365
paysandu,-32.3214,-58.0756,79.0,60,0,5.55,UY,1612657309
ambulu,-8.345,113.6058,78.31,84,64,2.64,ID,1612657517
sefophe,-22.1833,27.9667,68.54,95,100,7.16,BW,1612657520
auki,-8.7676,160.7034,78.91,88,100,13.42,SB,1612657523
narsaq,60.9167,-46.05,20.32,78,36,2.59,GL,1612657394
iracoubo,5.4802,-53.2011,77.68,87,100,13.71,GF,1612657530
kozhva,65.1073,57.0459,-30.21,83,100,11.56,RU,1612657533
shelburne,44.0787,-80.2041,17.6,73,90,11.5,CA,1612657536
acapulco,16.8634,-99.8901,82.4,69,1,9.22,MX,1612657540
bull savanna,17.8868,-77.5902,74.48,86,1,12.86,JM,1612657543
ponta delgada,37.7333,-25.6667,59.0,94,75,21.85,PT,1612657546
tabou,4.423,-7.3528,79.05,90,17,8.39,CI,1612657476
inhambane,-23.865,35.3833,76.93,88,83,7.07,MZ,1612657553
tateyama,34.9833,139.8667,55.4,62,20,6.91,JP,1612657556
ferme-neuve,46.7001,-75.4493,17.6,62,100,9.22,CA,1612657559
isla vista,34.4133,-119.861,69.01,56,0,1.99,US,1612657310
broome,42.2506,-75.833,24.8,33,1,3.44,US,1612657566
semnan,35.5729,53.3971,48.24,65,98,2.51,IR,1612657569
acajutla,13.5928,-89.8275,82.4,57,0,2.3,SV,1612657572
wanning,18.8003,110.3967,67.23,87,7,3.58,CN,1612657576
narasannapeta,18.4167,84.05,65.17,75,22,5.75,IN,1612657579
labuhan,-6.8844,112.2051,79.41,84,42,8.21,ID,1612657582
sohag,26.557,31.6948,55.4,67,0,6.91,EG,1612657586
